 [{
         "name": "Rami Levi",
         "address": "החרושת 12, רעננה",
         "latitude": 32.196,
         "longitude": 34.882
     },
     {
         "name": "Rami Levi",
         "address": "מבצע קדש 66, רמת גן,",
         "latitude": 32.103,
         "longitude": 34.831
     },
     {
         "name": "Mega ",
         "address": "אבן גבירול 30, תל אביב",
         "latitude": 32.076,
         "longitude": 34.783
     }, {
         "name": "Mega ",
         "address": "יהודה המכבי 46, תל אביב",
         "latitude": 32.095,
         "longitude": 34.793
     }, {
         "name": "Shufersal",
         "address": "ים התיכון",
         "latitude": 32.552,
         "longitude": 34.251
     }, {
         "name": "Rami Levi",
         "address": "ישראל",
         "latitude": 32.896,
         "longitude": 34.102
     },
     {
         "name": "Rami Levi",
         "address": "איפשהו בארץ,",
         "latitude": 33.163,
         "longitude": 34.332
     },
     {
         "name": "Mega ",
         "address": "עוד כתובת",
         "latitude": 33.676,
         "longitude": 31.703
     }, {
         "name": "Mega ",
         "address": "כתובת אחרת",
         "latitude": 31.595,
         "longitude": 30.783
     }, {
         "name": "Shufersal",
         "address": "ארלוזורוב",
         "latitude": 32.087,
         "longitude": 34.780
     }, {
         "name": "Shufersal",
         "address": "ראשון לציון",
         "latitude": 31.997,
         "longitude": 34.813
     }, {
         "name": "Shufersal",
         "address": "שמוטקין, תל אביב",
         "latitude": 32.087,
         "longitude": 34.777
     }
 ]